[{"datasetid": "velib-emplacement-des-stations", "recordid": "4237391ea84292c8d0706a579677bf3f46ab7915", "fields": {"capacity": 37, "name": "Chernoviz - Raynouard", "lon": 2.282173218142987, "station_id": 52329, "xy": [48.8569864146, 2.28217321814], "lat": 48.8569864146289}, "geometry": {"type": "Point", "coordinates": [2.28217321814, 48.8569864146]}, "record_timestamp": "2018-01-10T17:35:43+01:00"},{"datasetid": "velib-emplacement-des-stations", "recordid": "142e9f004f1c2bc434419670cf7ff24ee715514d", "fields": {"capacity": 17, "name": "Choron - Martyrs", "lon": 2.3396701365709305, "station_id": 15310509, "xy": [48.8778514435, 2.33967013657], "lat": 48.877851443502536}, "geometry": {"type": "Point", "coordinates": [2.33967013657, 48.8778514435]}, "record_timestamp": "2018-01-10T17:35:43+01:00"},{"datasetid": "velib-emplacement-des-stations", "recordid": "5d4b7de655ab5edd8cf6498c2c09cf98c8a9fad5", "fields": {"capacity": 31, "name": "Colonel Pierre Avia", "lon": 2.275342586850291, "station_id": 7234, "xy": [48.8296843301, 2.27534258685], "lat": 48.8296843300915}, "geometry": {"type": "Point", "coordinates": [2.27534258685, 48.8296843301]}, "record_timestamp": "2018-01-10T17:35:43+01:00"},{"datasetid": "velib-emplacement-des-stations", "recordid": "0b28895c61c53a087713014efdf3bb8034915551", "fields": {"capacity": 23, "name": "Goubet - Darius Milhaud", "lon": 2.390209687445294, "station_id": 13720513, "xy": [48.8846620656, 2.39020968745], "lat": 48.88466206560529}, "geometry": {"type": "Point", "coordinates": [2.39020968745, 48.8846620656]}, "record_timestamp": "2018-01-10T17:35:43+01:00"},{"datasetid": "velib-emplacement-des-stations", "recordid": "e8c458adea2d8b5dc159f321203e97d7d2c594a8", "fields": {"capacity": 38, "name": "Gouthi\u00e8re - Poterne des Peupliers", "lon": 2.351342, "station_id": 6354, "xy": [48.820507, 2.351342], "lat": 48.820507}, "geometry": {"type": "Point", "coordinates": [2.351342, 48.820507]}, "record_timestamp": "2018-01-10T17:35:43+01:00"},{"datasetid": "velib-emplacement-des-stations", "recordid": "1a820e97690a207fdbb93df71fa73eff355b0f33", "fields": {"capacity": 23, "name": "Jules Vall\u00e8s - Charonne", "lon": 2.384767457842827, "station_id": 15308712, "xy": [48.8542843799, 2.38476745784], "lat": 48.85428437993525}, "geometry": {"type": "Point", "coordinates": [2.38476745784, 48.8542843799]}, "record_timestamp": "2018-01-10T17:35:43+01:00"},{"datasetid": "velib-emplacement-des-stations", "recordid": "d5b872ea9c43124311be0c8a93aaf910e8ec8cde", "fields": {"capacity": 24, "name": "Mairie du 9e", "lon": 2.340753448052758, "station_id": 30550, "xy": [48.8732671376, 2.34075344805], "lat": 48.87326713758289}, "geometry": {"type": "Point", "coordinates": [2.34075344805, 48.8732671376]}, "record_timestamp": "2018-01-10T17:35:43+01:00"},{"datasetid": "velib-emplacement-des-stations", "recordid": "e1356525570430e81c6202df53d97bde108a3331", "fields": {"capacity": 23, "name": "Ouest - Ch\u00e2teau", "lon": 2.319392143923804, "station_id": 13497763, "xy": [48.8361728601, 2.31939214392], "lat": 48.83617286014242}, "geometry": {"type": "Point", "coordinates": [2.31939214392, 48.8361728601]}, "record_timestamp": "2018-01-10T17:35:43+01:00"},{"datasetid": "velib-emplacement-des-stations", "recordid": "4a0f3bf69595614aef946f3a68f3dda78f8c62c0", "fields": {"capacity": 15, "name": "Pierre Ginier Clichy", "lon": 2.326228, "station_id": 27033125, "xy": [48.8867667, 2.326228], "lat": 48.8867667}, "geometry": {"type": "Point", "coordinates": [2.326228, 48.8867667]}, "record_timestamp": "2018-01-10T17:35:43+01:00"},{"datasetid": "velib-emplacement-des-stations", "recordid": "972644f799788116a00b1dbc2f8e9df16a970f16", "fields": {"capacity": 24, "name": "Pontoise - La Tournelle", "lon": 2.352454275492188, "station_id": 6295, "xy": [48.8504580092, 2.35245427549], "lat": 48.85045800918843}, "geometry": {"type": "Point", "coordinates": [2.35245427549, 48.8504580092]}, "record_timestamp": "2018-01-10T17:35:43+01:00"},{"datasetid": "velib-emplacement-des-stations", "recordid": "804be0c1650dc56c129f69964b62261f74831f49", "fields": {"capacity": 18, "name": "Siam - La Pompe", "lon": 2.275346568555312, "station_id": 63279, "xy": [48.861720329, 2.27534656856], "lat": 48.861720329027264}, "geometry": {"type": "Point", "coordinates": [2.27534656856, 48.861720329]}, "record_timestamp": "2018-01-10T17:35:43+01:00"},{"datasetid": "velib-emplacement-des-stations", "recordid": "89a28d5b94e77392306b1cb89962b4031241ff5b", "fields": {"capacity": 22, "name": "Square Desnouettes", "lon": 2.284142297394666, "station_id": 15412563, "xy": [48.8347683793, 2.28414229739], "lat": 48.83476837934194}, "geometry": {"type": "Point", "coordinates": [2.28414229739, 48.8347683793]}, "record_timestamp": "2018-01-10T17:35:43+01:00"},{"datasetid": "velib-emplacement-des-stations", "recordid": "42ef2c5bf028fc6257924872eb3e537acd12c624", "fields": {"capacity": 25, "name": "Square des Saints-Simoniens", "lon": 2.3967273, "station_id": 26958435, "xy": [48.8701796, 2.3967273], "lat": 48.8701796}, "geometry": {"type": "Point", "coordinates": [2.3967273, 48.8701796]}, "record_timestamp": "2018-01-10T17:35:43+01:00"},{"datasetid": "velib-emplacement-des-stations", "recordid": "697592886fa2edf73d18a502efe7a4004cef5933", "fields": {"capacity": 37, "name": "Traversi\u00e8re - Ledru-Rollin", "lon": 2.375870111706245, "station_id": 37920, "xy": [48.8507358241, 2.37587011171], "lat": 48.850735824128805}, "geometry": {"type": "Point", "coordinates": [2.37587011171, 48.8507358241]}, "record_timestamp": "2018-01-10T17:35:43+01:00"},{"datasetid": "velib-emplacement-des-stations", "recordid": "7a5d765acd646481222dfc6a5578c65c0f357850", "fields": {"capacity": 24, "name": "Ventadour - Op\u00e9ra", "lon": 2.334388448251871, "station_id": 6245, "xy": [48.8668106533, 2.33438844825], "lat": 48.866810653323}, "geometry": {"type": "Point", "coordinates": [2.33438844825, 48.8668106533]}, "record_timestamp": "2018-01-10T17:35:43+01:00"},{"datasetid": "velib-emplacement-des-stations", "recordid": "d1f276e07e4446dfe8927e79aa25ad2dea8077c9", "fields": {"capacity": 31, "name": "Alexander Fleming - Belv\u00e9d\u00e8re", "lon": 2.403179367969562, "station_id": 13242682, "xy": [48.8817697939, 2.40317936797], "lat": 48.881769793858254}, "geometry": {"type": "Point", "coordinates": [2.40317936797, 48.8817697939]}, "record_timestamp": "2018-01-10T17:35:43+01:00"},{"datasetid": "velib-emplacement-des-stations", "recordid": "d7e37bf6334edcea2613191925138c67087ec591", "fields": {"capacity": 25, "name": "Bruant-Vincent Auriol", "lon": 2.366826499627087, "station_id": 13912564, "xy": [48.8348484529, 2.36682649963], "lat": 48.83484845292942}, "geometry": {"type": "Point", "coordinates": [2.36682649963, 48.8348484529]}, "record_timestamp": "2018-01-10T17:35:43+01:00"},{"datasetid": "velib-emplacement-des-stations", "recordid": "85cb7727a00b544106a228178f7c9f6f8e6706c8", "fields": {"capacity": 32, "name": "Charenton - Jardiniers", "lon": 2.394692664106047, "station_id": 7268, "xy": [48.8338217729, 2.39469266411], "lat": 48.833821772922654}, "geometry": {"type": "Point", "coordinates": [2.39469266411, 48.8338217729]}, "record_timestamp": "2018-01-10T17:35:43+01:00"},{"datasetid": "velib-emplacement-des-stations", "recordid": "cae72953ef05b9ef3e3e7a4261d5076200453bcd", "fields": {"capacity": 15, "name": "Chevreuse - Montparnasse", "lon": 2.331552216736739, "station_id": 7295, "xy": [48.8417391612, 2.33155221674], "lat": 48.841739161230905}, "geometry": {"type": "Point", "coordinates": [2.33155221674, 48.8417391612]}, "record_timestamp": "2018-01-10T17:35:43+01:00"},{"datasetid": "velib-emplacement-des-stations", "recordid": "72003e9f915d80a7588138bf5d5a0d5915b59e69", "fields": {"capacity": 19, "name": "Colonel Monteil - Brune", "lon": 2.30927479982717, "station_id": 10968855, "xy": [48.8265029331, 2.30927479983], "lat": 48.8265029331101}, "geometry": {"type": "Point", "coordinates": [2.30927479983, 48.8265029331]}, "record_timestamp": "2018-01-10T17:35:43+01:00"},{"datasetid": "velib-emplacement-des-stations", "recordid": "2840132cc74222395c844901c6d5765fb31b1a5d", "fields": {"capacity": 31, "name": "Crevaux - Bugeaud", "lon": 2.281149007691853, "station_id": 15462861, "xy": [48.8708094287, 2.28114900769], "lat": 48.870809428669546}, "geometry": {"type": "Point", "coordinates": [2.28114900769, 48.8708094287]}, "record_timestamp": "2018-01-10T17:35:43+01:00"},{"datasetid": "velib-emplacement-des-stations", "recordid": "30d5c1f2265d0ae2314b339dd83b1137d1deb2b5", "fields": {"capacity": 0, "name": "Cujas - Saint-Michel", "lon": 2.34183165485398, "station_id": 35908, "xy": [48.8481913486, 2.34183165485], "lat": 48.84819134858432}, "geometry": {"type": "Point", "coordinates": [2.34183165485, 48.8481913486]}, "record_timestamp": "2018-01-10T17:35:43+01:00"},{"datasetid": "velib-emplacement-des-stations", "recordid": "e250f56c66a38e4d8d564196a053824bd8054cc0", "fields": {"capacity": 46, "name": "Grands Moulins de Pantin", "lon": 2.396079008206681, "station_id": 52393, "xy": [48.8971300531, 2.39607900821], "lat": 48.89713005307456}, "geometry": {"type": "Point", "coordinates": [2.39607900821, 48.8971300531]}, "record_timestamp": "2018-01-10T17:35:43+01:00"},{"datasetid": "velib-emplacement-des-stations", "recordid": "770a8f2b7df53c752286e06d7d1958c73fad9ef0", "fields": {"capacity": 17, "name": "Hauteville - Bonne Nouvelle", "lon": 2.349649636832728, "station_id": 37420, "xy": [48.8707743602, 2.34964963683], "lat": 48.87077436024043}, "geometry": {"type": "Point", "coordinates": [2.34964963683, 48.8707743602]}, "record_timestamp": "2018-01-10T17:35:43+01:00"},{"datasetid": "velib-emplacement-des-stations", "recordid": "2690ef7b58ec222cca021bc9b0d4b2ded3a3f853", "fields": {"capacity": 15, "name": "March\u00e9 Saint-Quentin", "lon": 2.354511445637388, "station_id": 15309045, "xy": [48.8773560577, 2.35451144564], "lat": 48.877356057652264}, "geometry": {"type": "Point", "coordinates": [2.35451144564, 48.8773560577]}, "record_timestamp": "2018-01-10T17:35:43+01:00"},{"datasetid": "velib-emplacement-des-stations", "recordid": "ddce0f967e6e2c90bede0408e32cb9f57c890023", "fields": {"capacity": 34, "name": "Nationale-Vincent Auriol", "lon": 2.362354410392119, "station_id": 15153595, "xy": [48.832527084, 2.36235441039], "lat": 48.83252708397293}, "geometry": {"type": "Point", "coordinates": [2.36235441039, 48.832527084]}, "record_timestamp": "2018-01-10T17:35:43+01:00"},{"datasetid": "velib-emplacement-des-stations", "recordid": "1f215ffbb338cb3bd7b91a213433121a42aaca1a", "fields": {"capacity": 17, "name": "Parc Monceau", "lon": 2.30951238050775, "station_id": 15461933, "xy": [48.8811619836, 2.30951238051], "lat": 48.881161983577115}, "geometry": {"type": "Point", "coordinates": [2.30951238051, 48.8811619836]}, "record_timestamp": "2018-01-10T17:35:43+01:00"},{"datasetid": "velib-emplacement-des-stations", "recordid": "1ccf8511f2616104a2600ab1c279778c1a80c53b", "fields": {"capacity": 17, "name": "Petites Ecuries - Faubourg Poissonni\u00e8re", "lon": 2.348388757504776, "station_id": 37521, "xy": [48.8739721724, 2.3483887575], "lat": 48.87397217237368}, "geometry": {"type": "Point", "coordinates": [2.3483887575, 48.8739721724]}, "record_timestamp": "2018-01-10T17:35:43+01:00"},{"datasetid": "velib-emplacement-des-stations", "recordid": "781713fb1319b55b30226fc7bdadedd527880d98", "fields": {"capacity": 39, "name": "Place du Canada", "lon": 2.310193787964762, "station_id": 15383032, "xy": [48.8653462694, 2.31019378796], "lat": 48.865346269362675}, "geometry": {"type": "Point", "coordinates": [2.31019378796, 48.8653462694]}, "record_timestamp": "2018-01-10T17:35:43+01:00"},{"datasetid": "velib-emplacement-des-stations", "recordid": "dceea48ebf4e1b3d27175241e3131db7924eb0b1", "fields": {"capacity": 32, "name": "Saint-Fargeau - Mortier", "lon": 2.408203454302088, "station_id": 13372702, "xy": [48.872747269, 2.4082034543], "lat": 48.872747269036246}, "geometry": {"type": "Point", "coordinates": [2.4082034543, 48.872747269]}, "record_timestamp": "2018-01-10T17:35:43+01:00"},{"datasetid": "velib-emplacement-des-stations", "recordid": "8f6559160a96069f763afcb5fa18861e10e4c13e", "fields": {"capacity": 34, "name": "Volontaires-Vaugirard", "lon": 2.30808901725357, "station_id": 13248144, "xy": [48.8413205018, 2.30808901725], "lat": 48.84132050184004}, "geometry": {"type": "Point", "coordinates": [2.30808901725, 48.8413205018]}, "record_timestamp": "2018-01-10T17:35:43+01:00"},{"datasetid": "velib-emplacement-des-stations", "recordid": "86c50d46cc0ce39576600d446072869d0d0ccc46", "fields": {"capacity": 20, "name": "Ath\u00e8nes - Clichy", "lon": 2.32956021945824, "station_id": 7261, "xy": [48.8781137879, 2.32956021946], "lat": 48.878113787876}, "geometry": {"type": "Point", "coordinates": [2.32956021946, 48.8781137879]}, "record_timestamp": "2018-01-10T17:35:43+01:00"},{"datasetid": "velib-emplacement-des-stations", "recordid": "8afdf783f0348b35907335aaaac30ecde1ac6a39", "fields": {"capacity": 20, "name": "Duhamel - Andr\u00e9 Gide", "lon": 2.312707121097412, "station_id": 6497, "xy": [48.8365662244, 2.3127071211], "lat": 48.8365662244334}, "geometry": {"type": "Point", "coordinates": [2.3127071211, 48.8365662244]}, "record_timestamp": "2018-01-10T17:35:43+01:00"},{"datasetid": "velib-emplacement-des-stations", "recordid": "048cc561e6a8ac7f3934cdfc9c960529ef227305", "fields": {"capacity": 16, "name": "Favart - Italiens", "lon": 2.338290105850787, "station_id": 36151, "xy": [48.8714463539, 2.33829010585], "lat": 48.87144635392104}, "geometry": {"type": "Point", "coordinates": [2.33829010585, 48.8714463539]}, "record_timestamp": "2018-01-10T17:35:43+01:00"},{"datasetid": "velib-emplacement-des-stations", "recordid": "5c8189d1444a1d9c5eff04cf1547395b28843dc3", "fields": {"capacity": 36, "name": "Galil\u00e9e - Kl\u00e9ber", "lon": 2.290781380114821, "station_id": 15462236, "xy": [48.8674118657, 2.29078138011], "lat": 48.86741186571367}, "geometry": {"type": "Point", "coordinates": [2.29078138011, 48.8674118657]}, "record_timestamp": "2018-01-10T17:35:43+01:00"},{"datasetid": "velib-emplacement-des-stations", "recordid": "4ced3bf495ed948428626672325781e1382adab3", "fields": {"capacity": 18, "name": "Geoffroy-Saint-Hilaire - Saint-Marcel", "lon": 2.356877340669728, "station_id": 11580442, "xy": [48.8390782642, 2.35687734067], "lat": 48.83907826424974}, "geometry": {"type": "Point", "coordinates": [2.35687734067, 48.8390782642]}, "record_timestamp": "2018-01-10T17:35:43+01:00"},{"datasetid": "velib-emplacement-des-stations", "recordid": "274aca064842f63a8fd26a340988128869793faa", "fields": {"capacity": 31, "name": "George Sand-Jean De La Fontaine", "lon": 2.268257387525699, "station_id": 15163771, "xy": [48.8498691876, 2.26825738753], "lat": 48.84986918764119}, "geometry": {"type": "Point", "coordinates": [2.26825738753, 48.8498691876]}, "record_timestamp": "2018-01-10T17:35:43+01:00"},{"datasetid": "velib-emplacement-des-stations", "recordid": "e6b27f46fc8ca2659677ce3cee8c4d089a4d1c54", "fields": {"capacity": 17, "name": "Institut de France", "lon": 2.335831353037739, "station_id": 6296, "xy": [48.8576156786, 2.33583135304], "lat": 48.85761567856468}, "geometry": {"type": "Point", "coordinates": [2.33583135304, 48.8576156786]}, "record_timestamp": "2018-01-10T17:35:43+01:00"},{"datasetid": "velib-emplacement-des-stations", "recordid": "b3d2dd0f0deefd4940589b93e3bfd70dbf8e4c43", "fields": {"capacity": 32, "name": "La Motte-Picquet Grenelle", "lon": 2.299244076945987, "station_id": 38192, "xy": [48.8486563159, 2.29924407695], "lat": 48.848656315905245}, "geometry": {"type": "Point", "coordinates": [2.29924407695, 48.8486563159]}, "record_timestamp": "2018-01-10T17:35:43+01:00"},{"datasetid": "velib-emplacement-des-stations", "recordid": "9b1d7372c3a23891490305ffc9a3107195bafbc5", "fields": {"capacity": 17, "name": "Le Brix et Mesmin-Jourdan", "lon": 2.327861653302471, "station_id": 13105968, "xy": [48.8223409659, 2.3278616533], "lat": 48.82234096593411}, "geometry": {"type": "Point", "coordinates": [2.3278616533, 48.8223409659]}, "record_timestamp": "2018-01-10T17:35:43+01:00"},{"datasetid": "velib-emplacement-des-stations", "recordid": "b8cfe17d2b72f4f6630bfe156399b0a1e44fec94", "fields": {"capacity": 22, "name": "Louis Lumi\u00e8re", "lon": 2.41112578185621, "station_id": 52518, "xy": [48.8621619807, 2.41112578186], "lat": 48.86216198070008}, "geometry": {"type": "Point", "coordinates": [2.41112578186, 48.8621619807]}, "record_timestamp": "2018-01-10T17:35:43+01:00"},{"datasetid": "velib-emplacement-des-stations", "recordid": "98bd174838777e9fd1a684d4b187dd8dbeb5312a", "fields": {"capacity": 66, "name": "Mozart - Jasmin", "lon": 2.268483570651513, "station_id": 15387809, "xy": [48.8528612487, 2.26848357065], "lat": 48.85286124871689}, "geometry": {"type": "Point", "coordinates": [2.26848357065, 48.8528612487]}, "record_timestamp": "2018-01-10T17:35:43+01:00"},{"datasetid": "velib-emplacement-des-stations", "recordid": "8bdb0b91e8d3f1505b82ef7a2e2de8e59a1f5336", "fields": {"capacity": 15, "name": "Place de passy", "lon": 2.277500546942199, "station_id": 15291968, "xy": [48.8578029171, 2.27750054694], "lat": 48.85780291711202}, "geometry": {"type": "Point", "coordinates": [2.27750054694, 48.8578029171]}, "record_timestamp": "2018-01-10T17:35:43+01:00"},{"datasetid": "velib-emplacement-des-stations", "recordid": "af265faaac96f4130de68931ca6a14415a4551f5", "fields": {"capacity": 28, "name": "Pr\u00e9 Saint-Gervais - Lilas", "lon": 2.395985553624166, "station_id": 52456, "xy": [48.8779234119, 2.39598555362], "lat": 48.87792341192515}, "geometry": {"type": "Point", "coordinates": [2.39598555362, 48.8779234119]}, "record_timestamp": "2018-01-10T17:35:43+01:00"},{"datasetid": "velib-emplacement-des-stations", "recordid": "f18d81e079997c719c53ccea52df4cff7450e26b", "fields": {"capacity": 36, "name": "Richard Lenoir - Jean-Pierre Timbaud", "lon": 2.369337074966926, "station_id": 37791, "xy": [48.8658042767, 2.36933707497], "lat": 48.86580427668637}, "geometry": {"type": "Point", "coordinates": [2.36933707497, 48.8658042767]}, "record_timestamp": "2018-01-10T17:35:43+01:00"},{"datasetid": "velib-emplacement-des-stations", "recordid": "6c91fcad9f193026edbed2ba34ccd1856264214e", "fields": {"capacity": 16, "name": "Roquette - Auguste Laurent", "lon": 2.381797702650783, "station_id": 7402, "xy": [48.858001906, 2.38179770265], "lat": 48.858001906023354}, "geometry": {"type": "Point", "coordinates": [2.38179770265, 48.858001906]}, "record_timestamp": "2018-01-10T17:35:43+01:00"},{"datasetid": "velib-emplacement-des-stations", "recordid": "ba40df64c6657a031d33152458a1a7a5aff92ac7", "fields": {"capacity": 34, "name": "Sommerard - Saint-Jacques", "lon": 2.345015835298588, "station_id": 15308782, "xy": [48.8503104329, 2.3450158353], "lat": 48.850310432924466}, "geometry": {"type": "Point", "coordinates": [2.3450158353, 48.8503104329]}, "record_timestamp": "2018-01-10T17:35:43+01:00"},{"datasetid": "velib-emplacement-des-stations", "recordid": "3c065b27c33135fc4bcedf54df4a8f2d68f8a638", "fields": {"capacity": 39, "name": "Victor Hugo - La Pompe", "lon": 2.281477522417188, "station_id": 38327, "xy": [48.8681088869, 2.28147752242], "lat": 48.86810888689743}, "geometry": {"type": "Point", "coordinates": [2.28147752242, 48.8681088869]}, "record_timestamp": "2018-01-10T17:35:43+01:00"},{"datasetid": "velib-emplacement-des-stations", "recordid": "6eed665b03d066cef10ba4411280a0268a5671a3", "fields": {"capacity": 26, "name": "Arsonval Falgui\u00e8re", "lon": 2.313117867297474, "station_id": 11375742, "xy": [48.8404004037, 2.3131178673], "lat": 48.84040040365445}, "geometry": {"type": "Point", "coordinates": [2.3131178673, 48.8404004037]}, "record_timestamp": "2018-01-10T17:35:43+01:00"},{"datasetid": "velib-emplacement-des-stations", "recordid": "4a5bee9a330728a2902d9e76bffc4b28366ff0e1", "fields": {"capacity": 35, "name": "Assas - Luxembourg", "lon": 2.333428381875887, "station_id": 13191324, "xy": [48.8437344688, 2.33342838188], "lat": 48.84373446877937}, "geometry": {"type": "Point", "coordinates": [2.33342838188, 48.8437344688]}, "record_timestamp": "2018-01-10T17:35:43+01:00"},{"datasetid": "velib-emplacement-des-stations", "recordid": "e1df8e8e6d140f7fdd0f4f7a4228ce52ee49f7bd", "fields": {"capacity": 32, "name": "Assas - Rennes", "lon": 2.32851454623001, "station_id": 13356269, "xy": [48.8492084999, 2.32851454623], "lat": 48.8492084999386}, "geometry": {"type": "Point", "coordinates": [2.32851454623, 48.8492084999]}, "record_timestamp": "2018-01-10T17:35:43+01:00"},{"datasetid": "velib-emplacement-des-stations", "recordid": "5f7760cbbc8eadab4949b5f1d052a4c65c2ae307", "fields": {"capacity": 14, "name": "Bassano -  I\u00e9na", "lon": 2.296149600985935, "station_id": 7304, "xy": [48.8681445105, 2.29614960099], "lat": 48.868144510482075}, "geometry": {"type": "Point", "coordinates": [2.29614960099, 48.8681445105]}, "record_timestamp": "2018-01-10T17:35:43+01:00"},{"datasetid": "velib-emplacement-des-stations", "recordid": "8de99386c9f64ef8bc153b67d6db4c6ff1973090", "fields": {"capacity": 21, "name": "Belleville -  Pr\u00e9 Saint-Gervais", "lon": 2.392960787279829, "station_id": 52474, "xy": [48.8755180686, 2.39296078728], "lat": 48.875518068648745}, "geometry": {"type": "Point", "coordinates": [2.39296078728, 48.8755180686]}, "record_timestamp": "2018-01-10T17:35:43+01:00"},{"datasetid": "velib-emplacement-des-stations", "recordid": "c911d6cf45401b7d91fd7e5825b0749f028b7601", "fields": {"capacity": 23, "name": "Charonne - Pierre Bayle", "lon": 2.39039812238911, "station_id": 7247, "xy": [48.8584450543, 2.39039812239], "lat": 48.858445054261914}, "geometry": {"type": "Point", "coordinates": [2.39039812239, 48.8584450543]}, "record_timestamp": "2018-01-10T17:35:43+01:00"},{"datasetid": "velib-emplacement-des-stations", "recordid": "ba398ceaa2cd5c3da4272cece75b14d2cde76465", "fields": {"capacity": 42, "name": "Flandrin - Longchamp", "lon": 2.274354539176829, "station_id": 38407, "xy": [48.8687784918, 2.27435453918], "lat": 48.86877849178477}, "geometry": {"type": "Point", "coordinates": [2.27435453918, 48.8687784918]}, "record_timestamp": "2018-01-10T17:35:43+01:00"},{"datasetid": "velib-emplacement-des-stations", "recordid": "9378ea3849e91e665dbccf420e1b6a2c04d32e69", "fields": {"capacity": 24, "name": "Gare du Nord - Saint-Vincent de Paul", "lon": 2.352430514838522, "station_id": 6298, "xy": [48.8809557416, 2.35243051484], "lat": 48.88095574164779}, "geometry": {"type": "Point", "coordinates": [2.35243051484, 48.8809557416]}, "record_timestamp": "2018-01-10T17:35:43+01:00"},{"datasetid": "velib-emplacement-des-stations", "recordid": "8b37b46094ba6d62044fd533dd21f4e970c4a0fa", "fields": {"capacity": 24, "name": "Gay Lussac - Saint-Jacques", "lon": 2.341923944866407, "station_id": 7254, "xy": [48.8447302561, 2.34192394487], "lat": 48.844730256132095}, "geometry": {"type": "Point", "coordinates": [2.34192394487, 48.8447302561]}, "record_timestamp": "2018-01-10T17:35:43+01:00"},{"datasetid": "velib-emplacement-des-stations", "recordid": "5e3911947e1a7bfa841397d24a17c1274288d18c", "fields": {"capacity": 18, "name": "Jean-Baptiste Pigalle - La Bruyere", "lon": 2.333709173337285, "station_id": 36298, "xy": [48.8793982645, 2.33370917334], "lat": 48.87939826447722}, "geometry": {"type": "Point", "coordinates": [2.33370917334, 48.8793982645]}, "record_timestamp": "2018-01-10T17:35:43+01:00"},{"datasetid": "velib-emplacement-des-stations", "recordid": "62ce2e1b78999f43bc04b2eb8301073fa7bd26b6", "fields": {"capacity": 15, "name": "Porte de M\u00e9nilmontant", "lon": 2.40932246879487, "station_id": 6512, "xy": [48.8691543609, 2.40932246879], "lat": 48.8691543609174}, "geometry": {"type": "Point", "coordinates": [2.40932246879, 48.8691543609]}, "record_timestamp": "2018-01-10T17:35:43+01:00"},{"datasetid": "velib-emplacement-des-stations", "recordid": "f0c41e1f2a2818cf3bd80038b5ca700dcb14baa9", "fields": {"capacity": 15, "name": "Saint-Bon - Rivoli", "lon": 2.350217280976349, "station_id": 6352, "xy": [48.8579996433, 2.35021728098], "lat": 48.857999643314926}, "geometry": {"type": "Point", "coordinates": [2.35021728098, 48.8579996433]}, "record_timestamp": "2018-01-10T17:35:43+01:00"},{"datasetid": "velib-emplacement-des-stations", "recordid": "202451aadd311fb0cbe90ead7d47706a17dc16d0", "fields": {"capacity": 21, "name": "Toudouze - Clauzel", "lon": 2.337190639271711, "station_id": 36255, "xy": [48.8795052656, 2.33719063927], "lat": 48.879505265624786}, "geometry": {"type": "Point", "coordinates": [2.33719063927, 48.8795052656]}, "record_timestamp": "2018-01-10T17:35:43+01:00"},{"datasetid": "velib-emplacement-des-stations", "recordid": "357ee86ad4b628219d6e124ab26bdedf8de90fc0", "fields": {"capacity": 45, "name": "Versailles - Claude Terrasse", "lon": 2.263834191152959, "station_id": 15401095, "xy": [48.8402193381, 2.26383419115], "lat": 48.84021933807409}, "geometry": {"type": "Point", "coordinates": [2.26383419115, 48.8402193381]}, "record_timestamp": "2018-01-10T17:35:43+01:00"},{"datasetid": "velib-emplacement-des-stations", "recordid": "4583c853f5260ce7314a4a564c339ce05922a216", "fields": {"capacity": 0, "name": "Eglise d'Auteuil", "lon": 2.26848387135299, "station_id": 63297, "xy": [48.8474984177, 2.26848387135], "lat": 48.84749841771691}, "geometry": {"type": "Point", "coordinates": [2.26848387135, 48.8474984177]}, "record_timestamp": "2018-01-10T17:35:43+01:00"},{"datasetid": "velib-emplacement-des-stations", "recordid": "a9340b2a32bcaea157436696360d56939e45e2ea", "fields": {"capacity": 32, "name": "Hautpoul - Jean Jaur\u00e8s", "lon": 2.386541454435452, "station_id": 6399, "xy": [48.8863936794, 2.38654145444], "lat": 48.88639367943585}, "geometry": {"type": "Point", "coordinates": [2.38654145444, 48.8863936794]}, "record_timestamp": "2018-01-10T17:35:43+01:00"},{"datasetid": "velib-emplacement-des-stations", "recordid": "f5daed23e2c93dcbd5e1ab940897245447b37149", "fields": {"capacity": 25, "name": "Le Vau - Maurice Bertaux", "lon": 2.411030612453627, "station_id": 52453, "xy": [48.8680343904, 2.41103061245], "lat": 48.86803439043193}, "geometry": {"type": "Point", "coordinates": [2.41103061245, 48.8680343904]}, "record_timestamp": "2018-01-10T17:35:43+01:00"},{"datasetid": "velib-emplacement-des-stations", "recordid": "822f2db50fedce2d2c17e4024f50937f4fceedaf", "fields": {"capacity": 32, "name": "Paul Doumer - La Tour", "lon": 2.280840481911055, "station_id": 15414455, "xy": [48.8601161096, 2.28084048191], "lat": 48.860116109626574}, "geometry": {"type": "Point", "coordinates": [2.28084048191, 48.8601161096]}, "record_timestamp": "2018-01-10T17:35:43+01:00"},{"datasetid": "velib-emplacement-des-stations", "recordid": "5dcacb920d2d65d17a5bb963641ca95b8f63e52d", "fields": {"capacity": 26, "name": "Pergol\u00e8se - Marbeau", "lon": 2.281512522529856, "station_id": 15463487, "xy": [48.8735687069, 2.28151252253], "lat": 48.87356870686902}, "geometry": {"type": "Point", "coordinates": [2.28151252253, 48.8735687069]}, "record_timestamp": "2018-01-10T17:35:43+01:00"},{"datasetid": "velib-emplacement-des-stations", "recordid": "aff48ea1999f0ec58dced32a46122a2dde67f4e8", "fields": {"capacity": 27, "name": "Pont de Lodi - Dauphine", "lon": 2.339947307565249, "station_id": 36003, "xy": [48.8552968986, 2.33994730757], "lat": 48.855296898603285}, "geometry": {"type": "Point", "coordinates": [2.33994730757, 48.8552968986]}, "record_timestamp": "2018-01-10T17:35:43+01:00"}]